{
    "last_updated": 1670576378,
    "ttl": 0,
    "version": "3.0.0",
    "data":
    {
        "stations":
        [
            {
                "type": "station",
                "station_id": "103",
                "name": "P03 - Piazza Walther",
                "lat": 46.497805,
                "lon": 11.355115,
                "city": "Bolzano - Bozen",
                "capacity": 403,
                "free": 102
            },
            {
                "type": "station",
                "station_id": "104",
                "name": "P04 - Luna via Molini",
                "lat": 46.500551,
                "lon": 11.358216,
                "city": "Bolzano - Bozen",
                "capacity": 150,
                "free": 37
            },
            {
                "type": "station",
                "station_id": "105",
                "name": "P05 - Laurin",
                "lat": 46.498174,
                "lon": 11.357255,
                "city": "Bolzano - Bozen",
                "capacity": 90,
                "free": 57
            },
            {
                "type": "station",
                "station_id": "108",
                "name": "P08 - BZ Centro via Mayr Nusser",
                "lat": 46.494402,
                "lon": 11.356716,
                "city": "Bolzano - Bozen",
                "capacity": 1055,
                "free": 634
            },
            {
                "type": "station",
                "station_id": "115",
                "name": "P15 - Palasport via Resia",
                "lat": 46.491603,
                "lon": 11.318078,
                "city": "Bolzano - Bozen",
                "capacity": 425,
                "free": 238
            },
            {
                "type": "station",
                "station_id": "ROVERETO:asm",
                "name": "A.S.M.",
                "lat": 45.893593,
                "lon": 11.036507,
                "address": "Piazzale ex-A.S.M - Via Manzoni - Rovereto",
                "city": "Rovereto",
                "capacity": 145,
                "free": 108
            },
            {
                "type": "station",
                "station_id": "ROVERETO:centrostorico",
                "name": "Centro Storico",
                "lat": 45.890306,
                "lon": 11.045004,
                "address": "Viale dei Colli - Rovereto",
                "city": "Rovereto",
                "capacity": 143,
                "free": 143
            },
            {
                "type": "station",
                "station_id": "ROVERETO:mart",
                "name": "Mart",
                "lat": 45.894705,
                "lon": 11.044661,
                "address": "Mart - Via Sticcotta - Rovereto",
                "city": "Rovereto",
                "capacity": 224,
                "free": 224
            },
            {
                "type": "station",
                "station_id": "ROVERETO:parcheggiocentro",
                "name": "Parcheggio Centro",
                "lat": 45.892243,
                "lon": 11.039152,
                "address": "Via Alessandro Manzoni - Rovereto",
                "city": "Rovereto",
                "capacity": 194,
                "free": 91
            },
            {
                "type": "station",
                "station_id": "ROVERETO:stazione",
                "name": "Stazione",
                "lat": 45.889441,
                "lon": 11.034458,
                "address": "Stazione - Via Via Brigata Acqui - Rovereto",
                "city": "Rovereto",
                "capacity": 110,
                "free": 79
            },
            {
                "type": "station",
                "station_id": "TRENTO:areaexsitviacanestrinip1",
                "name": "Area ex SIT via Canestrini - P1",
                "lat": 46.0691,
                "lon": 11.1162,
                "address": "Lung'Adige Monte Grappa",
                "city": "Trento",
                "capacity": 300,
                "free": 300
            },
            {
                "type": "station",
                "station_id": "TRENTO:autosilobuonconsigliop3",
                "name": "Autosilo Buonconsiglio - P3",
                "lat": 46.073612,
                "lon": 11.124208,
                "address": "Via F. Petrarca, 1/5",
                "city": "Trento",
                "capacity": 633,
                "free": 0
            },
            {
                "type": "station",
                "station_id": "TRENTO:centroeuropap2",
                "name": "Centro Europa - P2",
                "lat": 46.073551,
                "lon": 11.121393,
                "address": "Via G. Segantini, 7",
                "city": "Trento",
                "capacity": 480,
                "free": 187
            },
            {
                "type": "station",
                "station_id": "TRENTO:cteviabomportop6",
                "name": "CTE via Bomporto - P6",
                "lat": 46.065,
                "lon": 11.1163,
                "address": "Via Bomporto",
                "city": "Trento",
                "capacity": 250,
                "free": 0
            },
            {
                "type": "station",
                "station_id": "TRENTO:duomop5",
                "name": "Duomo - P5",
                "lat": 46.067219,
                "lon": 11.115151,
                "address": "Piazza Ezio Mosna, 1/A",
                "city": "Trento",
                "capacity": 300,
                "free": 102
            },
            {
                "type": "station",
                "station_id": "TRENTO:piazzafierap4",
                "name": "Piazza Fiera - P4",
                "lat": 46.065635,
                "lon": 11.125044,
                "address": "Piazza Fiera",
                "city": "Trento",
                "capacity": 450,
                "free": 252
            },
            {
                "type": "station",
                "station_id": "TRENTO:piazzalesanseverinop7",
                "name": "Piazzale Sanseverino - P7",
                "lat": 46.0657,
                "lon": 11.1145,
                "address": "Piazzale Roberto da Sanseverino",
                "city": "Trento",
                "capacity": 342,
                "free": 70
            },
            {
                "type": "station",
                "station_id": "116",
                "name": "P16 - Fiera via Marco Polo/Buozzi",
                "lat": 46.472249,
                "lon": 11.327066,
                "city": "Bolzano - Bozen",
                "capacity": 770,
                "free": 640
            },
            {
                "type": "station",
                "station_id": "me:parkhuber",
                "name": "Park Huber",
                "lat": 46.674215,
                "lon": 11.156807,
                "city": "Meran - Merano",
                "capacity": 51,
                "free": 36
            },
            {
                "type": "station",
                "station_id": "me:parkkarlwolf",
                "name": "Park Karl Wolf",
                "lat": 46.675253,
                "lon": 11.15884,
                "city": "Meran - Merano",
                "capacity": 206,
                "free": 87
            },
            {
                "type": "station",
                "station_id": "me:parkkellereialgund",
                "name": "Park Kellerei Algund",
                "lat": 46.673369,
                "lon": 11.16139,
                "city": "Meran - Merano",
                "capacity": 255,
                "free": 34
            },
            {
                "type": "station",
                "station_id": "me:parkplaza",
                "name": "Park Plaza",
                "lat": 46.673044,
                "lon": 11.158684,
                "city": "Meran - Merano",
                "capacity": 321,
                "free": 268
            },
            {
                "type": "station",
                "station_id": "me:parkterme",
                "name": "Park Terme",
                "lat": 46.669426,
                "lon": 11.161318,
                "city": "Meran - Merano",
                "capacity": 545,
                "free": 502
            },
            {
                "type": "station",
                "station_id": "106",
                "name": "P06 - Central Parking via Renon",
                "lat": 46.497134,
                "lon": 11.358907,
                "city": "Bolzano - Bozen",
                "capacity": 459,
                "free": 315
            },
            {
                "type": "sensor",
                "station_id": "001bc506701005d5-0.5670398327252228",
                "group_name": "area viale Druso",
                "group_id": "area_viale_druso",
                "name": "incrocio viale Venezia - viale Druso",
                "lat": 46.495061,
                "lon": 11.345608,
                "address": "area viale Druso",
                "city": "Bolzano - Bozen",
                "free": true
            },
            {
                "type": "sensor",
                "station_id": "001bc506701005c2-0.33768579602058546",
                "group_name": "area viale Druso",
                "group_id": "area_viale_druso",
                "name": "Piazza Adriano 1",
                "lat": 46.494825,
                "lon": 11.339989,
                "address": "area viale Druso",
                "city": "Bolzano - Bozen",
                "free": true
            },
            {
                "type": "sensor",
                "station_id": "001bc506701005cd-0.5841470150369141",
                "group_name": "area viale Druso",
                "group_id": "area_viale_druso",
                "name": "incrocio via Firenze - viale Druso",
                "lat": 46.494292,
                "lon": 11.343347,
                "address": "area viale Druso",
                "city": "Bolzano - Bozen",
                "free": true
            },
            {
                "type": "sensor",
                "station_id": "001bc506701128e3-0.1665969981663915",
                "group_name": "Via A. Rosmini 22-26",
                "group_id": "via_a_rosmini_22_26",
                "name": "Via A. Rosmini 22-26",
                "lat": 46.498231,
                "lon": 11.348042,
                "address": "Via A. Rosmini 22-26",
                "city": "Bolzano - Bozen",
                "free": false
            },
            {
                "type": "sensor",
                "station_id": "001bc50670100544-0.08884104041982055",
                "group_name": "area viale Druso",
                "group_id": "area_viale_druso",
                "name": "piazzetta Mazzoni 1",
                "lat": 46.495003,
                "lon": 11.347067,
                "address": "area viale Druso",
                "city": "Bolzano - Bozen",
                "free": true
            },
            {
                "type": "sensor",
                "station_id": "001bc50670100603-0.629985882607",
                "group_name": "area viale Druso",
                "group_id": "area_viale_druso",
                "name": "incrocio via Vicenza - viale Druso\n",
                "lat": 46.494353,
                "lon": 11.341867,
                "address": "area viale Druso",
                "city": "Bolzano - Bozen",
                "free": true
            },
            {
                "type": "sensor",
                "station_id": "001bc5067010064d-0.795418558803016",
                "group_name": "area viale Druso",
                "group_id": "area_viale_druso",
                "name": "piazzetta Mazzoni 4",
                "lat": 46.495056,
                "lon": 11.347056,
                "address": "area viale Druso",
                "city": "Bolzano - Bozen",
                "free": false
            },
            {
                "type": "sensor",
                "station_id": "001bc50670100557-0.8922057815395987",
                "group_name": "area viale Druso",
                "group_id": "area_viale_druso",
                "name": "piazzetta Mazzoni 3",
                "lat": 46.495025,
                "lon": 11.347069,
                "address": "area viale Druso",
                "city": "Bolzano - Bozen",
                "free": true
            },
            {
                "type": "sensor",
                "station_id": "001bc50670100533-0.16050720532077056",
                "group_name": "area viale Druso",
                "group_id": "area_viale_druso",
                "name": "piazzetta Mazzoni 2",
                "lat": 46.494981,
                "lon": 11.347075,
                "address": "area viale Druso",
                "city": "Bolzano - Bozen",
                "free": true
            },
            {
                "type": "sensor",
                "station_id": "001bc50670100594-0.6013806259814702",
                "group_name": "area viale Druso",
                "group_id": "area_viale_druso",
                "name": "incrocio viale Druso - via Vicenza 1",
                "lat": 46.494697,
                "lon": 11.342111,
                "address": "area viale Druso",
                "city": "Bolzano - Bozen",
                "free": false
            },
            {
                "type": "sensor",
                "station_id": "001bc506701005ae-0.4416901776309561",
                "group_name": "area viale Druso",
                "group_id": "area_viale_druso",
                "name": "viale Druso caserma carabinieri",
                "lat": 46.494603,
                "lon": 11.344633,
                "address": "area viale Druso",
                "city": "Bolzano - Bozen",
                "free": true
            },
            {
                "type": "sensor",
                "station_id": "001bc506701005fb-0.4604228274997586",
                "group_name": "area viale Druso",
                "group_id": "area_viale_druso",
                "name": "incrocio viale Druso - via Firenze",
                "lat": 46.494594,
                "lon": 11.34365,
                "address": "area viale Druso",
                "city": "Bolzano - Bozen",
                "free": true
            },
            {
                "type": "sensor",
                "station_id": "001bc50670100539-0.878228055370194",
                "group_name": "area viale Druso",
                "group_id": "area_viale_druso",
                "name": "Piazza Adriano 2",
                "lat": 46.494811,
                "lon": 11.340042,
                "address": "area viale Druso",
                "city": "Bolzano - Bozen",
                "free": true
            },
            {
                "type": "sensor",
                "station_id": "001bc50670112a10-0.2582368660192591",
                "group_name": "Viale Druso 91",
                "group_id": "viale_druso_91",
                "name": "Viale Druso 91",
                "lat": 46.495225,
                "lon": 11.33575,
                "address": "Viale Druso 91",
                "city": "Bolzano - Bozen",
                "free": true
            },
            {
                "type": "sensor",
                "station_id": "001bc506701005e0-0.9643203411644785",
                "group_name": "area viale Druso",
                "group_id": "area_viale_druso",
                "name": "incrocio viale Druso - via Vicenza 2",
                "lat": 46.494686,
                "lon": 11.342219,
                "address": "area viale Druso",
                "city": "Bolzano - Bozen",
                "free": false
            },
            {
                "type": "sensor",
                "station_id": "001bc50670112976-0.040625303343944985",
                "group_name": "Viale Druso 237",
                "group_id": "viale_druso_237",
                "name": "Viale Druso 237",
                "lat": 46.495,
                "lon": 11.328703,
                "address": "Viale Druso 237",
                "city": "Bolzano - Bozen",
                "free": false
            },
            {
                "type": "sensor",
                "station_id": "001bc50670100556-0.023027774584096994",
                "group_name": "area viale Druso",
                "group_id": "area_viale_druso",
                "name": "incrocio via Vicenza - viale Druso 2\n",
                "lat": 46.494306,
                "lon": 11.341864,
                "address": "area viale Druso",
                "city": "Bolzano - Bozen",
                "free": true
            },
            {
                "type": "sensor",
                "station_id": "001bc50670100518-0.24037840312343772",
                "group_name": "Leonardo da vinci, 17",
                "group_id": "leonardo_da_vinci_17",
                "name": "Leonardo da vinci, 17",
                "lat": 46.498972,
                "lon": 11.349553,
                "address": "Leonardo da vinci, 17",
                "city": "Bolzano - Bozen",
                "free": true
            },
            {
                "type": "sensor",
                "station_id": "001bc50670100507-0.7419618990343126",
                "group_name": "Leonardo da vinci, 17",
                "group_id": "leonardo_da_vinci_17",
                "name": "Leonardo da vinci, 17",
                "lat": 46.498978,
                "lon": 11.349494,
                "address": "Leonardo da vinci, 17",
                "city": "Bolzano - Bozen",
                "free": true
            },
            {
                "type": "sensor",
                "station_id": "001bc50670100541-0.012637676329621206",
                "group_name": "Via A. Rosmini 22-26",
                "group_id": "via_a_rosmini_22_26",
                "name": "Via A. Rosmini 22-26",
                "lat": 46.498292,
                "lon": 11.348031,
                "address": "Via A. Rosmini 22-26",
                "city": "Bolzano - Bozen",
                "free": true
            },
            {
                "type": "sensor",
                "station_id": "001bc50670112ad2-0.5583198294686798",
                "group_name": "Via Michael Gaismar",
                "group_id": "via_michael_gaismar",
                "name": "Via Michael Gaismar",
                "lat": 46.495797,
                "lon": 11.335781,
                "address": "Via Michael Gaismar",
                "city": "Bolzano - Bozen",
                "free": true
            },
            {
                "type": "sensor",
                "station_id": "001bc5067011297c-0.6749187861951917",
                "group_name": "Viale Druso 237",
                "group_id": "viale_druso_237",
                "name": "Viale Druso 237",
                "lat": 46.495033,
                "lon": 11.328697,
                "address": "Viale Druso 237",
                "city": "Bolzano - Bozen",
                "free": true
            },
            {
                "type": "sensor",
                "station_id": "001bc5067011298b-0.569936466467345",
                "group_name": "Viale Druso 91",
                "group_id": "viale_druso_91",
                "name": "Viale Druso 92",
                "lat": 46.495225,
                "lon": 11.335817,
                "address": "Viale Druso 91",
                "city": "Bolzano - Bozen",
                "free": false
            },
            {
                "type": "sensor",
                "station_id": "001bc50670100519-0.17194402586979085",
                "group_name": "Via Holfer, 18",
                "group_id": "via_holfer_18",
                "name": "Via Holfer, 18",
                "lat": 46.501022,
                "lon": 11.358289,
                "address": "Via Holfer, 18",
                "city": "Bolzano - Bozen",
                "free": true
            },
            {
                "type": "sensor",
                "station_id": "001bc50670112901-0.5065106434216042",
                "group_name": "Via Amalfi",
                "group_id": "via_amalfi",
                "name": "Via Amalfi angolo Via Druso",
                "lat": 46.495339,
                "lon": 11.332464,
                "address": "Via Amalfi",
                "city": "Bolzano - Bozen",
                "free": false
            },
            {
                "type": "sensor",
                "station_id": "001bc50670112b3c-0.13791841961370888",
                "group_name": "Via Cavour 1",
                "group_id": "via_cavour_1",
                "name": "Via Cavour 1",
                "lat": 46.502022,
                "lon": 11.357322,
                "address": "Via Cavour 1",
                "city": "Bolzano - Bozen",
                "free": true
            },
            {
                "type": "sensor",
                "station_id": "001bc506701128af-0.7224002005738737",
                "group_name": "Via Cavour 1",
                "group_id": "via_cavour_1",
                "name": "Via Cavour 1",
                "lat": 46.501997,
                "lon": 11.357392,
                "address": "Via Cavour 1",
                "city": "Bolzano - Bozen",
                "free": true
            },
            {
                "type": "sensor",
                "station_id": "001bc50670112a6b-0.29461298174677664",
                "group_name": "Via Amalfi",
                "group_id": "via_amalfi",
                "name": "Via Amalfi angolo Via Druso",
                "lat": 46.495283,
                "lon": 11.332472,
                "address": "Via Amalfi",
                "city": "Bolzano - Bozen",
                "free": true
            },
            {
                "type": "sensor",
                "station_id": "001bc506701005ce-0.7754341610822888",
                "group_name": "Via Holfer, 18",
                "group_id": "via_holfer_18",
                "name": "Via Holfer, 18",
                "lat": 46.501006,
                "lon": 11.358347,
                "address": "Via Holfer, 18",
                "city": "Bolzano - Bozen",
                "free": true
            },
            {
                "type": "sensor",
                "station_id": "001bc50670112b84-0.8206208199215559",
                "group_name": "Via Michael Gaismar",
                "group_id": "via_michael_gaismar",
                "name": "Via Michael Gaismar",
                "lat": 46.495739,
                "lon": 11.335781,
                "address": "Via Michael Gaismar",
                "city": "Bolzano - Bozen",
                "free": true
            },
            {
                "type": "sensor",
                "station_id": "001bc50670112b22-0.5212780916565374",
                "group_name": "Viale Druso 237",
                "group_id": "viale_druso_237",
                "name": "Viale Druso 237",
                "lat": 46.494969,
                "lon": 11.328692,
                "address": "Viale Druso 237",
                "city": "Bolzano - Bozen",
                "free": true
            },
            {
                "type": "sensor",
                "station_id": "935af00d-aa5f-eb11-9889-501ac5928d31-0.20911972361269293",
                "group_id": "",
                "name": "Parksensoren Bozen - PNI Parksensor Nr.10 Commissariato - Viale Eugenio di savoia",
                "lat": 46.505654,
                "lon": 11.339539,
                "free": false
            },
            {
                "type": "sensor",
                "station_id": "23ff2fb3-a6a1-eb11-b566-0050f27dde46-0.9670662020423257",
                "group_id": "",
                "name": "Parksensoren Meran - Meran Rennweg Nr.3",
                "lat": 46.67246,
                "lon": 11.159503,
                "free": false
            },
            {
                "type": "sensor",
                "station_id": "e9c5555d-a7a1-eb11-b566-0050f27dde46-0.6954356953811753",
                "group_id": "",
                "name": "Parksensoren Meran - Meran Rennweg Nr.4",
                "lat": 46.672558,
                "lon": 11.159528,
                "free": false
            },
            {
                "type": "sensor",
                "station_id": "db7936a9-f814-eb11-9fb4-0003ff1aa9e5-0.7273964880427104",
                "group_id": "",
                "name": "Parksensoren Meran - PNI Independent Meran Parkplatz",
                "lat": 46.675441,
                "lon": 11.148829,
                "free": false
            },
            {
                "type": "sensor",
                "station_id": "9398a35b-ef3d-eb11-b9ed-0050f244b601-0.2515843251483554",
                "group_id": "",
                "name": "Parksensoren Bozen - PNI Parksensor Nr.3 Siegesplatz Parkplatz",
                "lat": 46.50098,
                "lon": 11.34313,
                "free": false
            },
            {
                "type": "sensor",
                "station_id": "2f21684e-f5fc-4f00-bda3-a4d36ac072a1-0.06765686487957723",
                "group_id": "",
                "name": "Brixen Bahnhof 2",
                "lat": 46.70915,
                "lon": 11.650592,
                "free": true
            },
            {
                "type": "sensor",
                "station_id": "e7b6b734-78ad-4636-8944-596a2a1be51c-0.7632808174536689",
                "group_id": "",
                "name": "Brixen Bahnhof 1",
                "lat": 46.710555,
                "lon": 11.650689,
                "free": true
            }
        ]
    }
}
